{
  "response": [
    {
      "id": "0",
      "name": "Washington",
      "range": "Presidential Range",
      "geolocation": {"latitude": 44.2704, "longitude": -71.3034},
      "state": "New Hampshire",
      "elevationFt": 6288,
      "prominenceFt": 6138
    },
    {
      "id": "1",
      "name": "Adams",
      "range": "Presidential Range",
      "geolocation": {"latitude": 44.3202, "longitude": -71.2904},
      "state": "New Hampshire",
      "elevationFt": 5774,
      "prominenceFt": 804
    },
    {
      "id": "2",
      "name": "Jefferson",
      "range": "Presidential Range",
      "geolocation": {"latitude": 44.3045, "longitude": -71.3174},
      "state": "New Hampshire",
      "elevationFt": 5712,
      "prominenceFt": 742
    },
    {
      "id": "3",
      "name": "Monroe",
      "range": "Presidential Range",
      "geolocation": {"latitude": 44.2553, "longitude": -71.3216},
      "state": "New Hampshire",
      "elevationFt": 5384,
      "prominenceFt": 254
    },
    {
      "id": "4",
      "name": "Madison",
      "range": "Presidential Range",
      "geolocation": {"latitude": 44.3284, "longitude": -71.2788},
      "state": "New Hampshire",
      "elevationFt": 5367,
      "prominenceFt": 466
    },
    {
      "id": "5",
      "name": "Lafayette",
      "range": "Franconia Range",
      "geolocation": {"latitude": 44.1604, "longitude": -71.6440},
      "state": "New Hampshire",
      "elevationFt": 5260,
      "prominenceFt": 3320
    },
    {
      "id": "6",
      "name": "Lincoln",
      "range": "Franconia Range",
      "geolocation": {"latitude": 44.1486, "longitude": -71.6441},
      "state": "New Hampshire",
      "elevationFt": 5089,
      "prominenceFt": 180
    },
    {
      "id": "7",
      "name": "South Twin",
      "range": "Twin Range",
      "geolocation": {"latitude": 44.1878, "longitude": -71.5543},
      "state": "New Hampshire",
      "elevationFt": 4902,
      "prominenceFt": 1522
    },
    {
      "id": "8",
      "name": "Carter Dome",
      "range": "Carter-Moriah Range",
      "geolocation": {"latitude": 44.2685, "longitude": -71.1797},
      "state": "New Hampshire",
      "elevationFt": 4832,
      "prominenceFt": 2830
    },
    {
      "id": "9",
      "name": "Moosilauke",
      "range": "Benton Range",
      "geolocation": {"latitude": 44.0245, "longitude": -71.8316},
      "state": "New Hampshire",
      "elevationFt": 4802,
      "prominenceFt": 2933
    },
    {
      "id": "10",
      "name": "Eisenhower",
      "range": "Presidential Range",
      "geolocation": {"latitude": 44.2404, "longitude": -71.3508},
      "state": "New Hampshire",
      "elevationFt": 4780,
      "prominenceFt": 350
    },
    {
      "id": "11",
      "name": "North Twin",
      "range": "Twin Range",
      "geolocation": {"latitude": 44.2022, "longitude": -71.5573},
      "state": "New Hampshire",
      "elevationFt": 4761,
      "prominenceFt": 299
    },
    {
      "id": "12",
      "name": "Carrigain",
      "range": "Pemigewasset Wilderness",
      "geolocation": {"latitude": 44.2578, "longitude": -71.4424},
      "state": "New Hampshire",
      "elevationFt": 4700,
      "prominenceFt": 2240
    },
    {
      "id": "13",
      "name": "Bond",
      "range": "Bond Range",
      "geolocation": {"latitude": 44.1291, "longitude": -71.5386},
      "state": "New Hampshire",
      "elevationFt": 4698,
      "prominenceFt": 299
    },
    {
      "id": "14",
      "name": "Middle Carter",
      "range": "Carter-Moriah Range",
      "geolocation": {"latitude": 44.170405, "longitude": -71.579572},
      "state": "New Hampshire",
      "elevationFt": 4610,
      "prominenceFt": 720
    },
    {
      "id": "15",
      "name": "West Bond",
      "range": "Bond Range",
      "geolocation": {"latitude": 44.1425, "longitude": -71.5419},
      "state": "New Hampshire",
      "elevationFt": 4540,
      "prominenceFt": 299
    },
    {
      "id": "16",
      "name": "Garfield",
      "range": "Franconia Range",
      "geolocation": {"latitude": 44.1870, "longitude": -71.5790},
      "state": "New Hampshire",
      "elevationFt": 4500,
      "prominenceFt": 820
    },
    {
      "id": "17",
      "name": "Liberty",
      "range": "Franconia Range",
      "geolocation": {"latitude": 44.1153, "longitude": -71.6420},
      "state": "New Hampshire",
      "elevationFt": 4459,
      "prominenceFt": 379
    },
    {
      "id": "18",
      "name": "South Carter",
      "range": "Carter-Moriah Range",
      "geolocation": {"latitude": 44.2853, "longitude": -71.1674},
      "state": "New Hampshire",
      "elevationFt": 4430,
      "prominenceFt": 230
    },
    {
      "id": "19",
      "name": "Wildcat A peak",
      "range": "Carter-Moriah Range",
      "geolocation": {"latitude": 44.2556, "longitude": -71.2022},
      "state": "New Hampshire",
      "elevationFt": 4422,
      "prominenceFt": 1034
    },
    {
      "id": "20",
      "name": "Hancock",
      "range": "Hancock Range",
      "geolocation": {"latitude": 44.0838, "longitude": -71.5325},
      "state": "New Hampshire",
      "elevationFt": 4420,
      "prominenceFt": 1247
    },
    {
      "id": "21",
      "name": "South Kinsman",
      "range": "Kinsman Range",
      "geolocation": {"latitude": 44.1220, "longitude": -71.7364},
      "state": "New Hampshire",
      "elevationFt": 4358,
      "prominenceFt": 2240
    },
    {
      "id": "22",
      "name": "Field",
      "range": "Willey Range",
      "geolocation": {"latitude": 44.1978, "longitude": -71.4341},
      "state": "New Hampshire",
      "elevationFt": 4340,
      "prominenceFt": 1706
    },
    {
      "id": "23",
      "name": "Osceola",
      "range": "Osceola Range",
      "geolocation": {"latitude": 44.0205, "longitude": -71.5151},
      "state": "New Hampshire",
      "elevationFt": 4340,
      "prominenceFt": 200
    },
    {
      "id": "24",
      "name": "Flume",
      "range": "Franconia Range",
      "geolocation": {"latitude": 44.1087, "longitude": -71.6272},
      "state": "New Hampshire",
      "elevationFt": 4328,
      "prominenceFt": 408
    },
    {
      "id": "25",
      "name": "South Hancock",
      "range": "Hancock Range",
      "geolocation": {"latitude": 44.0631, "longitude": -71.5587},
      "state": "New Hampshire",
      "elevationFt": 4319,
      "prominenceFt": 1247
    },
    {
      "id": "26",
      "name": "Pierce",
      "range": "Presidential Range",
      "geolocation": {"latitude": 44.2278, "longitude": -71.4088},
      "state": "New Hampshire",
      "elevationFt": 4310,
      "prominenceFt": 235
    },
    {
      "id": "27",
      "name": "North Kinsman",
      "range": "Kinsman Range",
      "geolocation": {"latitude": 44.1363, "longitude": -71.7364},
      "state": "New Hampshire",
      "elevationFt": 4293,
      "prominenceFt": 2240
    },
    {
      "id": "28",
      "name": "Willey",
      "range": "Willey Range",
      "geolocation": {"latitude": 44.1975, "longitude": -71.4304},
      "state": "New Hampshire",
      "elevationFt": 4285,
      "prominenceFt": 256
    },
    {
      "id": "29",
      "name": "Bondcliff",
      "range": "Bond Range",
      "geolocation": {"latitude": 44.1346, "longitude": -71.5307},
      "state": "New Hampshire",
      "elevationFt": 4265,
      "prominenceFt": 299
    },
    {
      "id": "30",
      "name": "Zealand",
      "range": "Twin Range",
      "geolocation": {"latitude": 44.1977, "longitude": -71.5329},
      "state": "New Hampshire",
      "elevationFt": 4260,
      "prominenceFt": 246
    },
    {
      "id": "31",
      "name": "North Tripyramid",
      "range": "Sandwich Range",
      "geolocation": {"latitude": 43.9818, "longitude": -71.4404},
      "state": "New Hampshire",
      "elevationFt": 4180,
      "prominenceFt": 1320
    },
    {
      "id": "32",
      "name": "Cabot",
      "range": "Pilot Range",
      "geolocation": {"latitude": 44.4994, "longitude": -71.4145},
      "state": "New Hampshire",
      "elevationFt": 4170,
      "prominenceFt": 2674
    },
    {
      "id": "33",
      "name": "East Osceola",
      "range": "Osceola Range",
      "geolocation": {"latitude": 43.9797, "longitude": -71.5211},
      "state": "New Hampshire",
      "elevationFt": 4156,
      "prominenceFt": 316
    },
    {
      "id": "34",
      "name": "Middle Tripyramid",
      "range": "Sandwich Range",
      "geolocation": {"latitude": 43.9684, "longitude": -71.4478},
      "state": "New Hampshire",
      "elevationFt": 4140,
      "prominenceFt": 1320
    },
    {
      "id": "35",
      "name": "Cannon",
      "range": "Franconia Range",
      "geolocation": {"latitude": 44.1568, "longitude": -71.6984},
      "state": "New Hampshire",
      "elevationFt": 4100,
      "prominenceFt": 740
    },
    {
      "id": "36",
      "name": "Hale",
      "range": "Twin Range",
      "geolocation": {"latitude": 44.2205, "longitude": -71.4592},
      "state": "New Hampshire",
      "elevationFt": 4054,
      "prominenceFt": 614
    },
    {
      "id": "37",
      "name": "Jackson",
      "range": "Presidential Range",
      "geolocation": {"latitude": 44.2022, "longitude": -71.4061},
      "state": "New Hampshire",
      "elevationFt": 4052,
      "prominenceFt": 331
    },
    {
      "id": "38",
      "name": "Tom",
      "range": "Willey Range",
      "geolocation": {"latitude": 44.1887, "longitude": -71.4107},
      "state": "New Hampshire",
      "elevationFt": 4051,
      "prominenceFt": 331
    },
    {
      "id": "39",
      "name": "Wildcat D Peak",
      "range": "Carter-Moriah Range",
      "geolocation": {"latitude": 44.2553, "longitude": -71.1795},
      "state": "New Hampshire",
      "elevationFt": 4050,
      "prominenceFt": 1034
    },
    {
      "id": "40",
      "name": "Moriah",
      "range": "Carter-Moriah Range",
      "geolocation": {"latitude": 44.3565, "longitude": -71.1312},
      "state": "New Hampshire",
      "elevationFt": 4049,
      "prominenceFt": 922
    },
    {
      "id": "41",
      "name": "Passaconaway",
      "range": "Sandwich Range",
      "geolocation": {"latitude": 43.9938, "longitude": -71.3815},
      "state": "New Hampshire",
      "elevationFt": 4043,
      "prominenceFt": 803
    },
    {
      "id": "42",
      "name": "Owl's Head",
      "range": "Pemigewasset Wilderness",
      "geolocation": {"latitude": 44.0832, "longitude": -71.5603},
      "state": "New Hampshire",
      "elevationFt": 4025,
      "prominenceFt": 825
    },
    {
      "id": "43",
      "name": "Galehead",
      "range": "Twin Range",
      "geolocation": {"latitude": 44.1873, "longitude": -71.5537},
      "state": "New Hampshire",
      "elevationFt": 4024,
      "prominenceFt": 264
    },
    {
      "id": "44",
      "name": "Whiteface",
      "range": "Sandwich Range",
      "geolocation": {"latitude": 43.9340, "longitude": -71.4059},
      "state": "New Hampshire",
      "elevationFt": 4020,
      "prominenceFt": 591
    },
    {
      "id": "45",
      "name": "Waumbek",
      "range": "Pliny Range",
      "geolocation": {"latitude": 44.4284, "longitude": -71.4147},
      "state": "New Hampshire",
      "elevationFt": 4006,
      "prominenceFt": 1289
    },
    {
      "id": "46",
      "name": "Isolation",
      "range": "Dry River Wilderness",
      "geolocation": {"latitude": 44.2527, "longitude": -71.3065},
      "state": "New Hampshire",
      "elevationFt": 4004,
      "prominenceFt": 203
    },
    {
      "id": "47",
      "name": "Tecumseh",
      "range": "Sandwich Range",
      "geolocation": {"latitude": 43.9673, "longitude": -71.5581},
      "state": "New Hampshire",
      "elevationFt": 4003,
      "prominenceFt": 1739
    }
  ]
}
